{"type":"FeatureCollection","features":[{"type":"Feature","properties":{"id":1,"name":"Angola","tons":16079},"geometry":{"type":"Point","coordinates":[17.87388,-11.20269]}},{"type":"Feature","properties":{"id":2,"name":"Belize","tons":90},"geometry":{"type":"Point","coordinates":[-88.49765,17.18987]}},{"type":"Feature","properties":{"id":3,"name":"Benin","tons":51},"geometry":{"type":"Point","coordinates":[2.31583,9.30769]}},{"type":"Feature","properties":{"id":4,"name":"Bolivia","tons":22121},"geometry":{"type":"Point","coordinates":[-63.58865,-16.29015]}},{"type":"Feature","properties":{"id":5,"name":"Brazil","tons":3556638},"geometry":{"type":"Point","coordinates":[-51.92528,-14.235004]}},{"type":"Feature","properties":{"id":6,"name":"Burundi","tons":14216},"geometry":{"type":"Point","coordinates":[29.018886,-3.373056]}},{"type":"Feature","properties":{"id":7,"name":"Cambodia","tons":381},"geometry":{"type":"Point","coordinates":[104.99096,12.56567]}},{"type":"Feature","properties":{"id":8,"name":"Cameroon","tons":33164},"geometry":{"type":"Point","coordinates":[12.354722,7.369722]}},{"type":"Feature","properties":{"id":9,"name":"Cape Verde","tons":35},"geometry":{"type":"Point","coordinates":[-24.013197,16.002082]}},{"type":"Feature","properties":{"id":10,"name":"China","tons":100332},"geometry":{"type":"Point","coordinates":[104.195397,35.86166]}},{"type":"Feature","properties":{"id":11,"name":"Colombia","tons":720634},"geometry":{"type":"Point","coordinates":[-74.297333,4.570868]}},{"type":"Feature","properties":{"id":12,"name":"Comoros","tons":137},"geometry":{"type":"Point","coordinates":[43.872219,-11.875001]}},{"type":"Feature","properties":{"id":13,"name":"Congo","tons":3041},"geometry":{"type":"Point","coordinates":[15.827659,-0.228021]}},{"type":"Feature","properties":{"id":14,"name":"Costa Rica","tons":85340},"geometry":{"type":"Point","coordinates":[-83.753428,9.748917]}},{"type":"Feature","properties":{"id":15,"name":"Cote d'Ivoire","tons":3155070},"geometry":{"type":"Point","coordinates":[-5.54708,7.539989]}},{"type":"Feature","properties":{"id":16,"name":"Cuba","tons":6814},"geometry":{"type":"Point","coordinates":[-77.781167,21.521757]}},{"type":"Feature","properties":{"id":17,"name":"DRC","tons":29673},"geometry":{"type":"Point","coordinates":[21.758664,-4.038333]}},{"type":"Feature","properties":{"id":18,"name":"Dominica","tons":226},"geometry":{"type":"Point","coordinates":[-61.370976,15.414999]}},{"type":"Feature","properties":{"id":19,"name":"Dominican Republic","tons":18416},"geometry":{"type":"Point","coordinates":[-70.162651,18.73569]}},{"type":"Feature","properties":{"id":20,"name":"Ecuador","tons":5065},"geometry":{"type":"Point","coordinates":[-78.183406,-1.831239]}},{"type":"Feature","properties":{"id":21,"name":"El Salvador","tons":80167},"geometry":{"type":"Point","coordinates":[-88.89653,13.794185]}},{"type":"Feature","properties":{"id":22,"name":"Equatorial Guinea","tons":4251},"geometry":{"type":"Point","coordinates":[10.267895,1.650801]}},{"type":"Feature","properties":{"id":23,"name":"Ethiopia","tons":470221},"geometry":{"type":"Point","coordinates":[40.489673,9.145]}},{"type":"Feature","properties":{"id":24,"name":"Fiji","tons":19},"geometry":{"type":"Point","coordinates":[179.414413,-16.578193]}},{"type":"Feature","properties":{"id":25,"name":"Gabon","tons":88},"geometry":{"type":"Point","coordinates":[11.609444,-0.803689]}},{"type":"Feature","properties":{"id":26,"name":"Ghana","tons":735},"geometry":{"type":"Point","coordinates":[-1.023194,7.946527]}},{"type":"Feature","properties":{"id":27,"name":"Guatemala","tons":245580},"geometry":{"type":"Point","coordinates":[-90.230759,15.783471]}},{"type":"Feature","properties":{"id":28,"name":"Guinea","tons":42900},"geometry":{"type":"Point","coordinates":[-9.696645,9.945587]}},{"type":"Feature","properties":{"id":29,"name":"Guyana","tons":403},"geometry":{"type":"Point","coordinates":[-58.93018,4.860416]}},{"type":"Feature","properties":{"id":30,"name":"Haiti","tons":44200},"geometry":{"type":"Point","coordinates":[-72.285215,18.971187]}},{"type":"Feature","properties":{"id":31,"name":"Honduras","tons":481053},"geometry":{"type":"Point","coordinates":[-86.241905,15.19999]}},{"type":"Feature","properties":{"id":32,"name":"India","tons":326982},"geometry":{"type":"Point","coordinates":[78.96288,20.59368]}},{"type":"Feature","properties":{"id":33,"name":"Indonesia","tons":722461},"geometry":{"type":"Point","coordinates":[113.921327,-0.789275]}},{"type":"Feature","properties":{"id":34,"name":"Jamaica","tons":7085},"geometry":{"type":"Point","coordinates":[-77.297508,18.109581]}},{"type":"Feature","properties":{"id":35,"name":"Kenya","tons":41375},"geometry":{"type":"Point","coordinates":[37.906193,-0.023599]}},{"type":"Feature","properties":{"id":36,"name":"Laos","tons":154435},"geometry":{"type":"Point","coordinates":[102.495496,19.85627]}},{"type":"Feature","properties":{"id":37,"name":"Liberia","tons":648},"geometry":{"type":"Point","coordinates":[-9.429499,6.428055]}},{"type":"Feature","properties":{"id":38,"name":"Madagascar","tons":57451},"geometry":{"type":"Point","coordinates":[46.869107,-18.766947]}},{"type":"Feature","properties":{"id":39,"name":"Malawi","tons":11082},"geometry":{"type":"Point","coordinates":[34.301525,-13.254308]}},{"type":"Feature","properties":{"id":40,"name":"Malaysia","tons":8743},"geometry":{"type":"Point","coordinates":[101.97576,4.210484]}},{"type":"Feature","properties":{"id":41,"name":"Mexico","tons":158325},"geometry":{"type":"Point","coordinates":[-102.552784,24.634501]}},{"type":"Feature","properties":{"id":42,"name":"Mozambique","tons":846},"geometry":{"type":"Point","coordinates":[35.52956,-18.66569]}},{"type":"Feature","properties":{"id":43,"name":"Myanmar","tons":8607},"geometry":{"type":"Point","coordinates":[95.956224,21.91396]}},{"type":"Feature","properties":{"id":44,"name":"Nepal","tons":513},"geometry":{"type":"Point","coordinates":[84.124008,28.394857]}},{"type":"Feature","properties":{"id":45,"name":"Nicaragua","tons":141931},"geometry":{"type":"Point","coordinates":[-85.207229,12.865416]}},{"type":"Feature","properties":{"id":46,"name":"Nigeria","tons":1849},"geometry":{"type":"Point","coordinates":[8.675277,9.081999]}},{"type":"Feature","properties":{"id":47,"name":"Panama","tons":6729},"geometry":{"type":"Point","coordinates":[-80.782127,8.537981]}},{"type":"Feature","properties":{"id":48,"name":"Papua New Guinea","tons":57965},"geometry":{"type":"Point","coordinates":[143.95555,-6.314993]}},{"type":"Feature","properties":{"id":49,"name":"Paraguay","tons":441},"geometry":{"type":"Point","coordinates":[-58.443832,-23.442503]}},{"type":"Feature","properties":{"id":50,"name":"Peru","tons":369622},"geometry":{"type":"Point","coordinates":[-75.015152,-9.189967]}},{"type":"Feature","properties":{"id":51,"name":"Philippines","tons":60313},"geometry":{"type":"Point","coordinates":[121.774017,12.879721]}},{"type":"Feature","properties":{"id":52,"name":"Puerto Rico","tons":3872},"geometry":{"type":"Point","coordinates":[-66.590149,18.220833]}},{"type":"Feature","properties":{"id":53,"name":"Rwanda","tons":21548},"geometry":{"type":"Point","coordinates":[29.873888,-1.940278]}},{"type":"Feature","properties":{"id":54,"name":"Sierra Leone","tons":28096},"geometry":{"type":"Point","coordinates":[-11.779889,8.460555]}},{"type":"Feature","properties":{"id":55,"name":"Sri Lanka","tons":6445},"geometry":{"type":"Point","coordinates":[80.771797,7.873054]}},{"type":"Feature","properties":{"id":56,"name":"Tanzania","tons":55770},"geometry":{"type":"Point","coordinates":[34.888822,-6.369028]}},{"type":"Feature","properties":{"id":57,"name":"Thailand","tons":32684},"geometry":{"type":"Point","coordinates":[100.992541,15.870032]}},{"type":"Feature","properties":{"id":58,"name":"Timor","tons":8876},"geometry":{"type":"Point","coordinates":[125.880424,-8.808361788]}},{"type":"Feature","properties":{"id":59,"name":"Togo","tons":21023},"geometry":{"type":"Point","coordinates":[0.824782,8.619543]}},{"type":"Feature","properties":{"id":60,"name":"Trinidad and Tobago","tons":51},"geometry":{"type":"Point","coordinates":[-61.222503,10.691803]}},{"type":"Feature","properties":{"id":61,"name":"Uganda","tons":211200},"geometry":{"type":"Point","coordinates":[32.290275,1.373333]}},{"type":"Feature","properties":{"id":62,"name":"United States","tons":2380},"geometry":{"type":"Point","coordinates":[-95.712891,37.09024]}},{"type":"Feature","properties":{"id":63,"name":"Vanuatu","tons":29},"geometry":{"type":"Point","coordinates":[166.959158,-15.376705]}},{"type":"Feature","properties":{"id":64,"name":"Venezuela","tons":50080},"geometry":{"type":"Point","coordinates":[-66.58973,6.42375]}},{"type":"Feature","properties":{"id":65,"name":"Vietnam","tons":1616307},"geometry":{"type":"Point","coordinates":[108.277199,14.058324]}},{"type":"Feature","properties":{"id":66,"name":"Yemen","tons":19338},"geometry":{"type":"Point","coordinates":[48.516388,15.552727]}},{"type":"Feature","properties":{"id":67,"name":"Zambia","tons":7104},"geometry":{"type":"Point","coordinates":[27.849332,-13.133897]}},{"type":"Feature","properties":{"id":68,"name":"Zimbabwe","tons":525},"geometry":{"type":"Point","coordinates":[29.154857,-19.015438]}}]}
